2026-06-20 15:49:44.830 | 192.168.43.118:50510 | 1257922+$GPRMC,134945.00,A,4735.79641,N,01903.63159,E,0.506,,200626,,,A*76
$GPGGA Time:134945.00
Lati:4735.79641 : N Long:01903.63159 : E
SatN:08 HDOP:1.45 Elev:187.1
 | 192.168.43.118:50510 | 1258037+$GPGGA,134945.00,4735.79641,N,01903.63159,E,1,08,1.45,187.1,M,39.4,M,,*50
2026-06-20 15:49:44.952 | 192.168.43.118:50510 | {TsMs:1258037}{Pre:1008.19}{Alt:42.20}{acc:[-0.23, -0.08, 1.11]}{gyr:[-0.45, -6.78, -27.89]}{resG:1.14}{temp:34.63}{comp:[-368, -851, -823]}{azi:143}{bea:6}{dir: SE}
2026-06-20 15:49:45.064 | 192.168.43.118:50510 | 1258097+$GPGSA,A,3,04,09,17,19,06,01,31,28,,,,,2.46,1.45,1.98*0E
2026-06-20 15:49:45.078 | 192.168.43.118:50510 | 1258170+$GPGSV,3,1,12,01,32,156,14,02,07,156,10,03,63,079,16,04,77,222,23*71
2026-06-20 15:49:45.148 | 192.168.43.118:50510 | 1258241+$GPGSV,3,2,12,06,35,310,36,07,00,187,,09,40,234,22,17,22,245,16*7F
2026-06-20 15:49:45.218 | 192.168.43.118:50510 | 1258311+$GPGSV,3,3,12,19,26,278,20,26,03,088,,28,15,037,09,31,33,061,21*7B
2026-06-20 15:49:45.836 | 192.168.43.118:50510 | 1258928+$GPRMC,134946.00,A,4735.79551,N,01903.63132,E,0.812,,200626,,,A*72
$GPGGA Time:134946.00
Lati:4735.79551 : N Long:01903.63132 : E
SatN:09 HDOP:0.95 Elev:187.4
 | 192.168.43.118:50510 | 1259042+$GPGGA,134946.00,4735.79551,N,01903.63132,E,1,09,0.95,187.4,M,39.4,M,,*54
2026-06-20 15:49:45.958 | 192.168.43.118:50510 | {TsMs:1259043}{Pre:1008.20}{Alt:42.15}{acc:[-0.19, -0.18, 0.84]}{gyr:[13.10, 4.74, -32.72]}{resG:0.88}{temp:34.64}{comp:[-375, -884, -813]}{azi:144}{bea:6}{dir: SE}
2026-06-20 15:49:46.012 | 192.168.43.118:50510 | 1259105+$GPGSA,A,3,03,04,09,17,19,06,01,31,28,,,,1.85,0.95,1.59*00
2026-06-20 15:49:46.088 | 192.168.43.118:50510 | 1259178+$GPGSV,3,1,12,01,32,156,14,02,07,156,10,03,63,079,17,04,77,222,23*70
2026-06-20 15:49:46.156 | 192.168.43.118:50510 | 1259248+$GPGSV,3,2,12,06,35,310,36,07,00,187,,09,40,234,21,17,22,245,14*7E
2026-06-20 15:49:46.227 | 192.168.43.118:50510 | 1259319+$GPGSV,3,3,12,19,26,278,22,26,03,088,,28,15,037,09,31,33,061,20*78
2026-06-20 15:49:46.835 | 192.168.43.118:50510 | 1259927+$GPRMC,134947.00,A,4735.79456,N,01903.63140,E,1.069,,200626,,,A*75
$GPGGA Time:134947.00
Lati:4735.79456 : N Long:01903.63140 : E
SatN:09 HDOP:0.95 Elev:187.8
 | 192.168.43.118:50510 | 1260041+$GPGGA,134947.00,4735.79456,N,01903.63140,E,1,09,0.95,187.8,M,39.4,M,,*5A
2026-06-20 15:49:46.958 | 192.168.43.118:50510 | {TsMs:1260042}{Pre:1008.18}{Alt:42.31}{acc:[-0.31, -0.11, 0.92]}{gyr:[8.24, 14.98, -100.30]}{resG:0.98}{temp:34.63}{comp:[-382, -923, -809]}{azi:144}{bea:6}{dir: SE}
2026-06-20 15:49:47.015 | 192.168.43.118:50510 | 1260104+$GPGSA,A,3,03,04,09,17,19,06,01,31,28,,,,1.85,0.95,1.59*00
2026-06-20 15:49:47.091 | 192.168.43.118:50510 | 1260177+$GPGSV,3,1,12,01,32,156,13,02,07,156,10,03,63,079,16,04,77,222,23*76
2026-06-20 15:49:47.155 | 192.168.43.118:50510 | 1260247+$GPGSV,3,2,12,06,35,310,37,07,00,187,,09,40,234,20,17,22,245,13*79
2026-06-20 15:49:47.243 | 192.168.43.118:50510 | 1260318+$GPGSV,3,3,12,19,26,278,21,26,03,088,,28,15,037,09,31,33,061,22*79
2026-06-20 15:49:47.837 | 192.168.43.118:50510 | 1260927+$GPRMC,134948.00,A,4735.79419,N,01903.63115,E,0.511,,200626,,,A*7A
$GPGGA Time:134948.00
Lati:4735.79419 : N Long:01903.63115 : E
SatN:07 HDOP:1.74 Elev:188.4
 | 192.168.43.118:50510 | 1261042+$GPGGA,134948.00,4735.79419,N,01903.63115,E,1,07,1.74,188.4,M,39.4,M,,*5D
2026-06-20 15:49:47.960 | 192.168.43.118:50510 | {TsMs:1261042}{Pre:1008.27}{Alt:41.57}{acc:[-0.63, -0.04, 0.85]}{gyr:[5.10, 10.98, -12.21]}{resG:1.06}{temp:34.63}{comp:[-387, -922, -806]}{azi:144}{bea:6}{dir: SE}
2026-06-20 15:49:48.014 | 192.168.43.118:50510 | 1261100+$GPGSA,A,3,03,04,09,19,06,31,28,,,,,,2.93,1.74,2.35*04
2026-06-20 15:49:48.091 | 192.168.43.118:50510 | 1261173+$GPGSV,3,1,12,01,32,156,09,02,07,156,10,03,63,079,17,04,77,222,22*7D
2026-06-20 15:49:48.152 | 192.168.43.118:50510 | 1261244+$GPGSV,3,2,12,06,35,310,38,07,00,187,,09,40,234,19,17,22,245,09*77
2026-06-20 15:49:48.228 | 192.168.43.118:50510 | 1261314+$GPGSV,3,3,12,19,26,278,20,26,03,088,,28,15,037,09,31,33,061,23*79
2026-06-20 15:49:48.831 | 192.168.43.118:50510 | 1261918+$GPRMC,134949.00,A,4735.79358,N,01903.63105,E,0.515,,200626,,,A*7C
$GPGGA Time:134949.00
Lati:4735.79358 : N Long:01903.63105 : E
SatN:07 HDOP:1.74 Elev:189.0
 | 192.168.43.118:50510 | 1262033+$GPGGA,134949.00,4735.79358,N,01903.63105,E,1,07,1.74,189.0,M,39.4,M,,*5A
2026-06-20 15:49:48.949 | 192.168.43.118:50510 | {TsMs:1262033}{Pre:1008.19}{Alt:42.22}{acc:[-0.17, 0.01, 1.29]}{gyr:[-5.88, -25.29, -67.14]}{resG:1.30}{temp:34.64}{comp:[-381, -864, -808]}{azi:143}{bea:6}{dir: SE}
2026-06-20 15:49:48.999 | 192.168.43.118:50510 | 1262091+$GPGSA,A,3,03,04,09,19,06,31,28,,,,,,2.93,1.74,2.35*04
2026-06-20 15:49:49.070 | 192.168.43.118:50510 | 1262162+$GPGSV,3,1,12,01,32,156,,02,07,156,10,03,63,079,16,04,77,222,22*75
2026-06-20 15:49:49.139 | 192.168.43.118:50510 | 1262232+$GPGSV,3,2,12,06,35,310,38,07,00,187,,09,40,234,19,17,22,245,07*79
2026-06-20 15:49:49.213 | 192.168.43.118:50510 | 1262303+$GPGSV,3,3,12,19,26,278,19,26,03,088,,28,15,037,09,31,33,061,23*73
2026-06-20 15:49:49.829 | 192.168.43.118:50510 | 1262922+$GPRMC,134950.00,A,4735.79298,N,01903.63064,E,0.833,,200626,,,A*76
$GPGGA Time:134950.00
Lati:4735.79298 : N Long:01903.63064 : E
SatN:08 HDOP:1.74 Elev:189.3
 | 192.168.43.118:50510 | 1263036+$GPGGA,134950.00,4735.79298,N,01903.63064,E,1,08,1.74,189.3,M,39.4,M,,*55
2026-06-20 15:49:49.950 | 192.168.43.118:50510 | {TsMs:1263036}{Pre:1008.19}{Alt:42.19}{acc:[-0.31, 0.10, 0.89]}{gyr:[-16.89, 3.52, -61.20]}{resG:0.94}{temp:34.65}{comp:[-366, -791, -811]}{azi:142}{bea:6}{dir: SE}
2026-06-20 15:49:50.004 | 192.168.43.118:50510 | 1263096+$GPGSA,A,3,03,04,09,19,06,01,31,28,,,,,2.93,1.74,2.35*05
2026-06-20 15:49:50.076 | 192.168.43.118:50510 | 1263169+$GPGSV,3,1,12,01,32,156,18,02,07,156,10,03,63,079,16,04,77,222,21*7F
2026-06-20 15:49:50.246 | 192.168.43.118:50510 | 1263311+$GPGSV,3,3,12,19,26,278,17,26,03,088,,28,15,037,17,31,33,061,23*72
2026-06-20 15:49:50.829 | 192.168.43.118:50510 | 1263921+$GPRMC,134951.00,A,4735.79225,N,01903.63036,E,1.038,,200626,,,A*74
$GPGGA Time:134951.00
Lati:4735.79225 : N Long:01903.63036 : E
SatN:08 HDOP:1.75 Elev:189.7
 | 192.168.43.118:50510 | 1264036+$GPGGA,134951.00,4735.79225,N,01903.63036,E,1,08,1.75,189.7,M,39.4,M,,*50
2026-06-20 15:49:50.953 | 192.168.43.118:50510 | {TsMs:1264036}{Pre:1008.19}{Alt:42.22}{acc:[-0.21, -0.03, 0.85]}{gyr:[-41.18, 0.85, 3.30]}{resG:0.88}{temp:34.66}{comp:[-356, -735, -814]}{azi:141}{bea:6}{dir: SE}
2026-06-20 15:49:51.003 | 192.168.43.118:50510 | 1264096+$GPGSA,A,3,03,04,09,19,06,01,31,28,,,,,2.93,1.75,2.35*04
2026-06-20 15:49:51.078 | 192.168.43.118:50510 | 1264169+$GPGSV,3,1,12,01,32,156,16,02,07,156,10,03,63,079,15,04,77,222,19*79
2026-06-20 15:49:51.146 | 192.168.43.118:50510 | 1264240+$GPGSV,3,2,12,06,35,310,36,07,00,187,,09,40,234,20,17,22,245,07*7D
2026-06-20 15:49:51.217 | 192.168.43.118:50510 | 1264310+$GPGSV,3,3,12,19,26,278,17,26,03,088,,28,15,037,19,31,33,061,21*7E
2026-06-20 15:49:51.834 | 192.168.43.118:50510 | 1264924+$GPRMC,134952.00,A,4735.79157,N,01903.62998,E,0.811,,200626,,,A*7F
$GPGGA Time:134952.00
Lati:4735.79157 : N Long:01903.62998 : E
SatN:08 HDOP:1.75 Elev:190.2
 | 192.168.43.118:50510 | 1265038+$GPGGA,134952.00,4735.79157,N,01903.62998,E,1,08,1.75,190.2,M,39.4,M,,*54
2026-06-20 15:49:51.954 | 192.168.43.118:50510 | {TsMs:1265039}{Pre:1008.18}{Alt:42.31}{acc:[-0.15, -0.07, 0.90]}{gyr:[-29.25, 34.19, 28.20]}{resG:0.92}{temp:34.64}{comp:[-351, -705, -817]}{azi:140}{bea:6}{dir: SE}
2026-06-20 15:49:52.006 | 192.168.43.118:50510 | 1265099+$GPGSA,A,3,03,04,09,19,06,01,31,28,,,,,2.93,1.75,2.35*04
2026-06-20 15:49:52.079 | 192.168.43.118:50510 | 1265172+$GPGSV,3,1,12,01,32,156,15,02,07,156,10,03,63,079,15,04,77,222,20*70
2026-06-20 15:49:52.150 | 192.168.43.118:50510 | 1265242+$GPGSV,3,2,12,06,35,310,35,07,00,187,,09,40,234,21,17,22,245,07*7F
2026-06-20 15:49:52.884 | 192.168.43.118:50510 | 1265921+$GPRMC,134953.00,A,4735.79144,N,01903.62950,E,0.531,,200626,,,A*77
2026-06-20 15:49:53.076 | 192.168.43.118:50510 | 1266169+$GPGSV,3,1,12,01,32,156,15,02,07,156,10,03,63,079,14,04,77,222,20*71
2026-06-20 15:49:53.148 | 192.168.43.118:50510 | 1266239+$GPGSV,3,2,12,06,35,310,35,07,00,187,,09,40,234,21,17,22,245,07*7F
2026-06-20 15:49:53.870 | 192.168.43.118:50510 | 1266922+$GPRMC,134954.00,A,4735.79097,N,01903.62904,E,0.583,,200626,,,A*77
$GPGGA Time:134954.00
Lati:4735.79097 : N Long:01903.62904 : E
SatN:08 HDOP:1.75 Elev:191.1
 | 192.168.43.118:50510 | 1267036+$GPGGA,134954.00,4735.79097,N,01903.62904,E,1,08,1.75,191.1,M,39.4,M,,*58
2026-06-20 15:49:53.951 | 192.168.43.118:50510 | {TsMs:1267037}{Pre:1008.46}{Alt:39.97}{acc:[-1.10, -0.21, 0.82]}{gyr:[0.44, -12.03, -71.37]}{resG:1.39}{temp:34.65}{comp:[-347, -809, -820]}{azi:143}{bea:6}{dir: SE}
2026-06-20 15:49:54.004 | 192.168.43.118:50510 | 1267097+$GPGSA,A,3,03,04,09,19,06,01,31,28,,,,,2.93,1.75,2.35*04
2026-06-20 15:49:54.135 | 192.168.43.118:50510 | 1267170+$GPGSV,3,1,12,01,32,156,14,02,07,156,10,03,63,079,14,04,77,222,21*71
2026-06-20 15:49:54.147 | 192.168.43.118:50510 | 1267240+$GPGSV,3,2,12,06,35,310,35,07,00,187,,09,40,234,21,17,21,244,07*7D
2026-06-20 15:49:54.218 | 192.168.43.118:50510 | 1267311+$GPGSV,3,3,12,19,26,278,18,26,03,088,,28,15,037,23,31,33,061,22*7B
2026-06-20 15:49:54.833 | 192.168.43.118:50510 | 1267924+$GPRMC,134955.00,A,4735.79012,N,01903.62878,E,0.858,,200626,,,A*7A
$GPGGA Time:134955.00
Lati:4735.79012 : N Long:01903.62878 : E
SatN:08 HDOP:1.75 Elev:191.5
 | 192.168.43.118:50510 | 1268038+$GPGGA,134955.00,4735.79012,N,01903.62878,E,1,08,1.75,191.5,M,39.4,M,,*5A
2026-06-20 15:49:54.955 | 192.168.43.118:50510 | {TsMs:1268039}{Pre:1008.25}{Alt:41.71}{acc:[-0.41, -0.06, 1.59]}{gyr:[13.18, -31.50, -50.22]}{resG:1.64}{temp:34.65}{comp:[-356, -858, -821]}{azi:144}{bea:6}{dir: SE}
2026-06-20 15:49:55.007 | 192.168.43.118:50510 | 1268099+$GPGSA,A,3,03,04,09,19,06,01,31,28,,,,,2.93,1.75,2.35*04
2026-06-20 15:49:55.079 | 192.168.43.118:50510 | 1268172+$GPGSV,3,1,12,01,32,156,14,02,07,156,10,03,63,079,16,04,77,222,20*72
2026-06-20 15:49:55.223 | 192.168.43.118:50510 | 1268313+$GPGSV,3,3,12,19,26,278,17,26,03,088,,28,15,037,21,31,33,061,20*74
2026-06-20 15:49:55.833 | 192.168.43.118:50510 | 1268923+$GPRMC,134956.00,A,4735.78956,N,01903.62863,E,1.346,,200626,,,A*7E
$GPGGA Time:134956.00
Lati:4735.78956 : N Long:01903.62863 : E
SatN:09 HDOP:1.01 Elev:192.2
 | 192.168.43.118:50510 | 1269038+$GPGGA,134956.00,4735.78956,N,01903.62863,E,1,09,1.01,192.2,M,39.4,M,,*5D
2026-06-20 15:49:55.953 | 192.168.43.118:50510 | {TsMs:1269038}{Pre:1008.15}{Alt:42.58}{acc:[-0.13, -0.16, 0.97]}{gyr:[9.04, -7.69, -34.94]}{resG:0.99}{temp:34.66}{comp:[-362, -899, -825]}{azi:145}{bea:6}{dir: SE}
2026-06-20 15:49:56.009 | 192.168.43.118:50510 | 1269100+$GPGSA,A,3,03,04,09,17,19,06,01,31,28,,,,2.02,1.01,1.76*0D
2026-06-20 15:49:56.081 | 192.168.43.118:50510 | 1269173+$GPGSV,3,1,12,01,32,156,12,02,07,156,10,03,63,079,16,04,77,222,20*74
2026-06-20 15:49:56.154 | 192.168.43.118:50510 | 1269244+$GPGSV,3,2,12,06,35,310,34,07,00,187,,09,40,234,22,17,21,244,20*7A
2026-06-20 15:49:56.225 | 192.168.43.118:50510 | 1269315+$GPGSV,3,3,12,19,26,277,16,26,03,088,,28,15,037,21,31,33,061,18*71
2026-06-20 15:49:56.831 | 192.168.43.118:50510 | 1269923+$GPRMC,134957.00,A,4735.78928,N,01903.62870,E,0.716,,200626,,,A*74
$GPGGA Time:134957.00
Lati:4735.78928 : N Long:01903.62870 : E
SatN:09 HDOP:1.75 Elev:192.6
 | 192.168.43.118:50510 | 1270038+$GPGGA,134957.00,4735.78928,N,01903.62870,E,1,09,1.75,192.6,M,39.4,M,,*50
2026-06-20 15:49:56.954 | 192.168.43.118:50510 | {TsMs:1270038}{Pre:1008.19}{Alt:42.24}{acc:[-0.22, -0.13, 0.80]}{gyr:[12.83, 0.72, -19.10]}{resG:0.84}{temp:34.66}{comp:[-358, -909, -824]}{azi:145}{bea:6}{dir: SE}
2026-06-20 15:49:57.008 | 192.168.43.118:50510 | 1270100+$GPGSA,A,3,03,04,09,17,19,06,01,31,28,,,,2.93,1.75,2.35*02
2026-06-20 15:49:57.080 | 192.168.43.118:50510 | 1270173+$GPGSV,3,1,12,01,32,156,12,02,07,156,10,03,63,079,15,04,77,222,21*76
2026-06-20 15:49:57.150 | 192.168.43.118:50510 | 1270244+$GPGSV,3,2,12,06,35,310,34,07,00,187,,09,40,234,22,17,21,244,17*7E
2026-06-20 15:49:57.230 | 192.168.43.118:50510 | 1270314+$GPGSV,3,3,12,19,26,277,17,26,03,088,,28,15,037,21,31,33,061,18*70
2026-06-20 15:49:57.829 | 192.168.43.118:50510 | 1270921+$GPRMC,134958.00,A,4735.78857,N,01903.62860,E,0.850,,200626,,,A*7E
$GPGGA Time:134958.00
Lati:4735.78857 : N Long:01903.62860 : E
SatN:08 HDOP:1.75 Elev:193.0
 | 192.168.43.118:50510 | 1271036+$GPGGA,134958.00,4735.78857,N,01903.62860,E,1,08,1.75,193.0,M,39.4,M,,*51
2026-06-20 15:49:57.969 | 192.168.43.118:50510 | {TsMs:1271036}{Pre:1008.16}{Alt:42.43}{acc:[-0.25, -0.08, 0.86]}{gyr:[20.86, 6.57, -44.46]}{resG:0.90}{temp:34.66}{comp:[-351, -866, -827]}{azi:144}{bea:6}{dir: SE}
2026-06-20 15:49:58.004 | 192.168.43.118:50510 | 1271096+$GPGSA,A,3,03,04,09,17,19,06,31,28,,,,,2.93,1.75,2.35*03
2026-06-20 15:49:58.099 | 192.168.43.118:50510 | 1271169+$GPGSV,3,1,12,01,32,156,14,02,07,156,10,03,63,079,15,04,77,222,20*71
2026-06-20 15:49:58.157 | 192.168.43.118:50510 | 1271240+$GPGSV,3,2,12,06,35,310,32,07,00,187,,09,40,234,22,17,21,244,14*7B
2026-06-20 15:49:58.217 | 192.168.43.118:50510 | 1271310+$GPGSV,3,3,12,19,26,277,18,26,03,088,,28,15,037,21,31,33,061,18*7F
2026-06-20 15:49:58.833 | 192.168.43.118:50510 | 1271925+$GPRMC,134959.00,A,4735.78842,N,01903.62857,E,0.732,,200626,,,A*74
$GPGGA Time:134959.00
Lati:4735.78842 : N Long:01903.62857 : E
SatN:09 HDOP:1.01 Elev:194.1
 | 192.168.43.118:50510 | 1272039+$GPGGA,134959.00,4735.78842,N,01903.62857,E,1,09,1.01,194.1,M,39.4,M,,*54
2026-06-20 15:49:58.954 | 192.168.43.118:50510 | {TsMs:1272040}{Pre:1008.16}{Alt:42.50}{acc:[-0.27, -0.10, 0.88]}{gyr:[15.48, 20.19, -99.14]}{resG:0.92}{temp:34.67}{comp:[-346, -811, -827]}{azi:143}{bea:6}{dir: SE}
2026-06-20 15:49:59.011 | 192.168.43.118:50510 | 1272102+$GPGSA,A,3,03,04,09,17,19,06,01,31,28,,,,2.02,1.01,1.75*0E
2026-06-20 15:49:59.112 | 192.168.43.118:50510 | 1272174+$GPGSV,3,1,12,01,32,156,13,02,07,156,10,03,63,079,14,04,77,222,21*76
2026-06-20 15:49:59.161 | 192.168.43.118:50510 | 1272245+$GPGSV,3,2,12,06,35,310,35,07,00,187,,09,40,234,22,17,21,244,16*7E
2026-06-20 15:49:59.227 | 192.168.43.118:50510 | 1272316+$GPGSV,3,3,12,19,26,277,17,26,03,088,,28,15,037,20,31,33,061,19*70
2026-06-20 15:49:59.833 | 192.168.43.118:50510 | 1272924+$GPRMC,135000.00,A,4735.78678,N,01903.62809,E,1.428,,200626,,,A*75
$GPGGA Time:135000.00
Lati:4735.78678 : N Long:01903.62809 : E
SatN:08 HDOP:1.45 Elev:193.5
 | 192.168.43.118:50510 | 1273038+$GPGGA,135000.00,4735.78678,N,01903.62809,E,1,08,1.45,193.5,M,39.4,M,,*5E
2026-06-20 15:49:59.953 | 192.168.43.118:50510 | {TsMs:1273038}{Pre:1008.29}{Alt:41.34}{acc:[-0.61, -0.02, 0.90]}{gyr:[10.46, 18.32, -33.50]}{resG:1.08}{temp:34.66}{comp:[-348, -765, -830]}{azi:142}{bea:6}{dir: SE}
2026-06-20 15:50:00.013 | 192.168.43.118:50510 | 1273098+$GPGSA,A,3,04,09,17,19,06,01,31,28,,,,,2.45,1.45,1.97*02
2026-06-20 15:50:00.077 | 192.168.43.118:50510 | 1273169+$GPGSV,3,1,12,01,32,156,14,02,07,156,10,03,63,079,,04,77,222,21*74
2026-06-20 15:50:00.147 | 192.168.43.118:50510 | 1273240+$GPGSV,3,2,12,06,35,310,36,07,00,187,,09,40,234,22,17,21,244,17*7C
2026-06-20 15:50:00.220 | 192.168.43.118:50510 | 1273311+$GPGSV,3,3,12,19,26,277,18,26,03,088,,28,15,037,19,31,33,061,19*75
2026-06-20 15:50:00.837 | 192.168.43.118:50510 | 1273926+$GPRMC,135001.00,A,4735.78683,N,01903.62692,E,1.000,,200626,,,A*72
$GPGGA Time:135001.00
Lati:4735.78683 : N Long:01903.62692 : E
SatN:09 HDOP:0.97 Elev:193.9
 | 192.168.43.118:50510 | 1274041+$GPGGA,135001.00,4735.78683,N,01903.62692,E,1,09,0.97,193.9,M,39.4,M,,*54
2026-06-20 15:50:00.956 | 192.168.43.118:50510 | {TsMs:1274041}{Pre:1008.47}{Alt:39.91}{acc:[-0.99, -0.01, 0.97]}{gyr:[-3.99, -20.01, -34.14]}{resG:1.39}{temp:34.67}{comp:[-360, -728, -830]}{azi:140}{bea:6}{dir: SE}
2026-06-20 15:50:01.011 | 192.168.43.118:50510 | 1274103+$GPGSA,A,3,03,04,09,17,19,06,01,31,28,,,,2.08,0.97,1.84*04
2026-06-20 15:50:01.083 | 192.168.43.118:50510 | 1274176+$GPGSV,3,1,12,01,32,156,12,02,07,156,10,03,63,079,17,04,77,222,22*77
2026-06-20 15:50:01.165 | 192.168.43.118:50510 | 1274247+$GPGSV,3,2,12,06,35,310,37,07,00,187,,09,40,234,22,17,21,244,16*7C
2026-06-20 15:50:01.226 | 192.168.43.118:50510 | 1274317+$GPGSV,3,3,12,19,26,277,19,26,03,088,,28,15,037,19,31,33,061,21*7F
2026-06-20 15:50:01.829 | 192.168.43.118:50510 | 1274921+$GPRMC,135002.00,A,4735.78585,N,01903.62676,E,0.682,,200626,,,A*73
$GPGGA Time:135002.00
Lati:4735.78585 : N Long:01903.62676 : E
SatN:08 HDOP:1.45 Elev:193.5
 | 192.168.43.118:50510 | 1275036+$GPGGA,135002.00,4735.78585,N,01903.62676,E,1,08,1.45,193.5,M,39.4,M,,*5B
2026-06-20 15:50:01.952 | 192.168.43.118:50510 | {TsMs:1275036}{Pre:1008.16}{Alt:42.46}{acc:[-0.21, 0.06, 0.96]}{gyr:[-15.16, -0.86, -39.25]}{resG:0.98}{temp:34.67}{comp:[-370, -713, -832]}{azi:139}{bea:6}{dir: SE}
2026-06-20 15:50:02.003 | 192.168.43.118:50510 | 1275096+$GPGSA,A,3,03,04,09,17,19,06,31,28,,,,,2.45,1.45,1.97*00
2026-06-20 15:50:02.077 | 192.168.43.118:50510 | 1275169+$GPGSV,3,1,12,01,32,156,09,02,07,156,08,03,63,079,13,04,77,222,21*73
2026-06-20 15:50:02.146 | 192.168.43.118:50510 | 1275240+$GPGSV,3,2,12,06,35,310,34,07,00,187,,09,40,234,21,17,21,244,16*7C
2026-06-20 15:50:02.218 | 192.168.43.118:50510 | 1275310+$GPGSV,3,3,12,19,26,277,18,26,03,088,,28,15,037,18,31,33,061,21*7F
2026-06-20 15:50:02.830 | 192.168.43.118:50510 | 1275921+$GPRMC,135003.00,A,4735.78528,N,01903.62712,E,0.259,,200626,,,A*74
$GPGGA Time:135003.00
Lati:4735.78528 : N Long:01903.62712 : E
SatN:08 HDOP:1.45 Elev:193.8
 | 192.168.43.118:50510 | 1276035+$GPGGA,135003.00,4735.78528,N,01903.62712,E,1,08,1.45,193.8,M,39.4,M,,*53
2026-06-20 15:50:02.952 | 192.168.43.118:50510 | {TsMs:1276036}{Pre:1008.20}{Alt:42.17}{acc:[-0.21, -0.01, 0.83]}{gyr:[-28.54, 4.39, -29.18]}{resG:0.85}{temp:34.67}{comp:[-373, -723, -832]}{azi:139}{bea:6}{dir: SE}
2026-06-20 15:50:03.006 | 192.168.43.118:50510 | 1276096+$GPGSA,A,3,03,04,09,17,19,06,31,28,,,,,2.45,1.45,1.97*00
2026-06-20 15:50:03.091 | 192.168.43.118:50510 | 1276169+$GPGSV,3,1,12,01,32,156,08,02,07,156,08,03,63,079,12,04,77,222,20*72
2026-06-20 15:50:03.147 | 192.168.43.118:50510 | 1276239+$GPGSV,3,2,12,06,35,310,37,07,00,187,,09,40,234,21,17,21,244,17*7E
2026-06-20 15:50:03.233 | 192.168.43.118:50510 | 1276310+$GPGSV,3,3,12,19,26,277,17,26,03,088,,28,15,037,18,31,33,061,21*70
2026-06-20 15:50:03.830 | 192.168.43.118:50510 | 1276922+$GPRMC,135004.00,A,4735.78438,N,01903.62699,E,0.362,,200626,,,A*78
$GPGGA Time:135004.00
Lati:4735.78438 : N Long:01903.62699 : E
SatN:08 HDOP:1.45 Elev:193.7
 | 192.168.43.118:50510 | 1277037+$GPGGA,135004.00,4735.78438,N,01903.62699,E,1,08,1.45,193.7,M,39.4,M,,*59
2026-06-20 15:50:03.951 | 192.168.43.118:50510 | {TsMs:1277037}{Pre:1008.16}{Alt:42.42}{acc:[-0.23, 0.01, 0.94]}{gyr:[-24.87, 19.93, 13.67]}{resG:0.97}{temp:34.66}{comp:[-371, -773, -828]}{azi:141}{bea:6}{dir: SE}
2026-06-20 15:50:04.007 | 192.168.43.118:50510 | 1277097+$GPGSA,A,3,03,04,09,17,19,06,31,28,,,,,2.45,1.45,1.97*00
2026-06-20 15:50:04.077 | 192.168.43.118:50510 | 1277170+$GPGSV,3,1,12,01,32,156,08,02,07,156,08,03,63,079,17,04,77,222,20*77
2026-06-20 15:50:04.147 | 192.168.43.118:50510 | 1277240+$GPGSV,3,2,12,06,35,310,37,07,00,187,,09,40,234,21,17,21,244,17*7E
2026-06-20 15:50:04.218 | 192.168.43.118:50510 | 1277311+$GPGSV,3,3,12,19,26,277,16,26,03,088,,28,15,037,18,31,33,061,23*73
2026-06-20 15:50:04.831 | 192.168.43.118:50510 | 1277921+$GPRMC,135005.00,A,4735.78396,N,01903.62674,E,0.240,,200626,,,A*78
$GPGGA Time:135005.00
Lati:4735.78396 : N Long:01903.62674 : E
SatN:08 HDOP:1.45 Elev:193.6
 | 192.168.43.118:50510 | 1278036+$GPGGA,135005.00,4735.78396,N,01903.62674,E,1,08,1.45,193.6,M,39.4,M,,*59
2026-06-20 15:50:04.953 | 192.168.43.118:50510 | {TsMs:1278036}{Pre:1008.24}{Alt:41.83}{acc:[-0.83, -0.12, 0.71]}{gyr:[-2.68, 24.16, -98.85]}{resG:1.10}{temp:34.67}{comp:[-369, -869, -816]}{azi:143}{bea:6}{dir: SE}
2026-06-20 15:50:05.003 | 192.168.43.118:50510 | 1278096+$GPGSA,A,3,03,04,09,17,19,06,31,28,,,,,2.45,1.45,1.97*00
2026-06-20 15:50:05.076 | 192.168.43.118:50510 | 1278169+$GPGSV,3,1,12,01,32,156,08,02,07,156,08,03,63,079,15,04,77,222,21*74
2026-06-20 15:50:05.147 | 192.168.43.118:50510 | 1278239+$GPGSV,3,2,12,06,35,310,37,07,00,187,,09,40,234,21,17,21,244,16*7F
2026-06-20 15:50:05.219 | 192.168.43.118:50510 | 1278310+$GPGSV,3,3,12,19,26,277,19,26,03,088,,28,15,037,20,31,33,061,22*76
2026-06-20 15:50:05.846 | 192.168.43.118:50510 | 1278924+$GPRMC,135006.00,A,4735.78334,N,01903.62634,E,0.624,,200626,,,A*71
$GPGGA Time:135006.00
Lati:4735.78334 : N Long:01903.62634 : E
SatN:08 HDOP:1.45 Elev:193.7
 | 192.168.43.118:50510 | 1279038+$GPGGA,135006.00,4735.78334,N,01903.62634,E,1,08,1.45,193.7,M,39.4,M,,*57
2026-06-20 15:50:05.955 | 192.168.43.118:50510 | {TsMs:1279038}{Pre:1008.23}{Alt:41.86}{acc:[-0.37, 0.04, 1.49]}{gyr:[8.74, -23.53, -15.25]}{resG:1.54}{temp:34.68}{comp:[-360, -961, -804]}{azi:146}{bea:6}{dir: SE}
2026-06-20 15:50:06.007 | 192.168.43.118:50510 | 1279098+$GPGSA,A,3,03,04,09,17,19,06,31,28,,,,,2.45,1.45,1.97*00
2026-06-20 15:50:06.078 | 192.168.43.118:50510 | 1279171+$GPGSV,3,1,12,01,32,156,08,02,07,156,08,03,63,079,13,04,77,222,22*71
2026-06-20 15:50:06.149 | 192.168.43.118:50510 | 1279242+$GPGSV,3,2,12,06,35,310,35,07,00,187,,09,40,234,21,17,21,244,16*7D
2026-06-20 15:50:06.220 | 192.168.43.118:50510 | 1279313+$GPGSV,3,3,12,19,26,277,18,26,03,088,,28,15,037,22,31,33,061,20*77
2026-06-20 15:50:06.832 | 192.168.43.118:50510 | 1279922+$GPRMC,135007.00,A,4735.78218,N,01903.62619,E,0.643,,200626,,,A*71
$GPGGA Time:135007.00
Lati:4735.78218 : N Long:01903.62619 : E
SatN:09 HDOP:1.45 Elev:193.4
 | 192.168.43.118:50510 | 1280037+$GPGGA,135007.00,4735.78218,N,01903.62619,E,1,09,1.45,193.4,M,39.4,M,,*54
2026-06-20 15:50:06.953 | 192.168.43.118:50510 | {TsMs:1280037}{Pre:1008.24}{Alt:41.82}{acc:[-0.22, -0.21, 1.03]}{gyr:[10.72, -7.58, -36.71]}{resG:1.07}{temp:34.68}{comp:[-354, -1020, -797]}{azi:147}{bea:6}{dir: SE}
2026-06-20 15:50:07.006 | 192.168.43.118:50510 | 1280099+$GPGSA,A,3,03,04,09,17,19,06,01,31,28,,,,2.45,1.45,1.97*01
2026-06-20 15:50:07.095 | 192.168.43.118:50510 | 1280172+$GPGSV,3,1,12,01,32,156,17,02,07,156,08,03,63,079,14,04,77,222,23*79
2026-06-20 15:50:07.150 | 192.168.43.118:50510 | 1280243+$GPGSV,3,2,12,06,35,310,35,07,00,187,,09,40,234,20,17,21,244,17*7D
2026-06-20 15:50:07.220 | 192.168.43.118:50510 | 1280313+$GPGSV,3,3,12,19,26,277,19,26,03,088,,28,15,037,21,31,33,061,21*74
2026-06-20 15:50:07.833 | 192.168.43.118:50510 | 1280924+$GPRMC,135008.00,A,4735.78126,N,01903.62607,E,0.770,,200626,,,A*7E
$GPGGA Time:135008.00
Lati:4735.78126 : N Long:01903.62607 : E
SatN:09 HDOP:1.43 Elev:193.1
 | 192.168.43.118:50510 | 1281039+$GPGGA,135008.00,4735.78126,N,01903.62607,E,1,09,1.43,193.1,M,39.4,M,,*59
2026-06-20 15:50:07.952 | 192.168.43.118:50510 | {TsMs:1281039}{Pre:1008.16}{Alt:42.46}{acc:[-0.15, -0.26, 0.81]}{gyr:[11.17, 1.31, -19.04]}{resG:0.87}{temp:34.68}{comp:[-350, -1070, -801]}{azi:148}{bea:6}{dir: SE}
2026-06-20 15:50:08.008 | 192.168.43.118:50510 | 1281101+$GPGSA,A,3,03,04,09,17,19,06,01,31,28,,,,2.30,1.43,1.80*03
2026-06-20 15:50:08.085 | 192.168.43.118:50510 | 1281174+$GPGSV,3,1,12,01,32,156,17,02,07,156,08,03,63,079,16,04,77,222,24*7C
2026-06-20 15:50:08.168 | 192.168.43.118:50510 | 1281245+$GPGSV,3,2,12,06,35,310,38,07,00,187,,09,40,234,20,17,21,244,18*7F
2026-06-20 15:50:08.223 | 192.168.43.118:50510 | 1281315+$GPGSV,3,3,12,19,26,277,20,26,03,088,,28,15,037,20,31,33,060,20*7F
2026-06-20 15:50:08.858 | 192.168.43.118:50510 | 1281926+$GPRMC,135009.00,A,4735.78029,N,01903.62541,E,0.972,,200626,,,A*7C
$GPGGA Time:135009.00
Lati:4735.78029 : N Long:01903.62541 : E
SatN:09 HDOP:1.43 Elev:192.4
 | 192.168.43.118:50510 | 1282041+$GPGGA,135009.00,4735.78029,N,01903.62541,E,1,09,1.43,192.4,M,39.4,M,,*53
2026-06-20 15:50:08.957 | 192.168.43.118:50510 | {TsMs:1282041}{Pre:1008.17}{Alt:42.39}{acc:[-0.31, -0.02, 0.81]}{gyr:[17.51, 15.41, -72.22]}{resG:0.87}{temp:34.68}{comp:[-338, -1066, -820]}{azi:149}{bea:6}{dir: SE}
2026-06-20 15:50:09.046 | 192.168.43.118:50510 | 1282103+$GPGSA,A,3,03,04,09,17,19,06,01,31,28,,,,2.30,1.43,1.80*03
2026-06-20 15:50:09.083 | 192.168.43.118:50510 | 1282176+$GPGSV,3,1,12,01,32,156,17,02,07,156,08,03,63,079,17,04,77,222,24*7D
2026-06-20 15:50:09.154 | 192.168.43.118:50510 | 1282246+$GPGSV,3,2,12,06,35,310,35,07,00,187,,09,40,234,20,17,21,244,19*73
2026-06-20 15:50:09.224 | 192.168.43.118:50510 | 1282317+$GPGSV,3,3,12,19,26,277,19,26,03,088,,28,15,037,20,31,33,060,20*75
2026-06-20 15:50:09.842 | 192.168.43.118:50510 | 1282924+$GPRMC,135010.00,A,4735.77928,N,01903.62518,E,1.027,,200626,,,A*77
$GPGGA Time:135010.00
Lati:4735.77928 : N Long:01903.62518 : E
SatN:09 HDOP:1.43 Elev:191.8
 | 192.168.43.118:50510 | 1283038+$GPGGA,135010.00,4735.77928,N,01903.62518,E,1,09,1.43,191.8,M,39.4,M,,*5F
2026-06-20 15:50:09.955 | 192.168.43.118:50510 | {TsMs:1283039}{Pre:1008.37}{Alt:40.72}{acc:[-0.38, -0.16, 1.05]}{gyr:[8.91, 24.55, -48.20]}{resG:1.13}{temp:34.68}{comp:[-331, -1007, -848]}{azi:148}{bea:6}{dir: SE}
2026-06-20 15:50:10.008 | 192.168.43.118:50510 | 1283101+$GPGSA,A,3,03,04,09,17,19,06,01,31,28,,,,2.30,1.43,1.80*03
2026-06-20 15:50:10.078 | 192.168.43.118:50510 | 1283172+$GPGSV,3,1,12,01,32,156,17,02,07,156,,03,63,079,16,04,77,222,24*74
2026-06-20 15:50:10.154 | 192.168.43.118:50510 | 1283242+$GPGSV,3,2,12,06,35,310,36,07,00,187,,09,40,234,21,17,21,244,20*7B
2026-06-20 15:50:10.220 | 192.168.43.118:50510 | 1283313+$GPGSV,3,3,12,19,26,277,19,26,03,088,,28,15,037,21,31,33,060,19*7E
2026-06-20 15:50:10.830 | 192.168.43.118:50510 | 1283921+$GPRMC,135011.00,A,4735.77809,N,01903.62522,E,0.766,,200626,,,A*7E
$GPGGA Time:135011.00
Lati:4735.77809 : N Long:01903.62522 : E
SatN:09 HDOP:0.97 Elev:191.1
 | 192.168.43.118:50510 | 1284035+$GPGGA,135011.00,4735.77809,N,01903.62522,E,1,09,0.97,191.1,M,39.4,M,,*54
2026-06-20 15:50:10.952 | 192.168.43.118:50510 | {TsMs:1284036}{Pre:1008.46}{Alt:39.97}{acc:[-0.78, -0.05, 1.12]}{gyr:[-2.92, -24.86, -28.38]}{resG:1.36}{temp:34.68}{comp:[-339, -951, -877]}{azi:147}{bea:6}{dir: SE}
2026-06-20 15:50:11.056 | 192.168.43.118:50510 | 1284098+$GPGSA,A,3,03,04,09,17,19,06,01,31,28,,,,2.08,0.97,1.84*04
2026-06-20 15:50:11.075 | 192.168.43.118:50510 | 1284169+$GPGSV,3,1,12,01,32,156,17,02,07,156,,03,63,079,15,04,77,222,23*70
2026-06-20 15:50:11.146 | 192.168.43.118:50510 | 1284239+$GPGSV,3,2,12,06,35,310,35,07,00,187,,09,40,234,21,17,21,244,21*79
2026-06-20 15:50:11.218 | 192.168.43.118:50510 | 1284310+$GPGSV,3,3,12,19,26,277,21,26,03,088,,28,15,037,21,31,33,060,19*75
2026-06-20 15:50:11.829 | 192.168.43.118:50510 | 1284921+$GPRMC,135012.00,A,4735.77752,N,01903.62482,E,0.693,,200626,,,A*7C
$GPGGA Time:135012.00
Lati:4735.77752 : N Long:01903.62482 : E
SatN:09 HDOP:1.45 Elev:191.0
 | 192.168.43.118:50510 | 1285036+$GPGGA,135012.00,4735.77752,N,01903.62482,E,1,09,1.45,191.0,M,39.4,M,,*52
2026-06-20 15:50:11.950 | 192.168.43.118:50510 | {TsMs:1285036}{Pre:1008.13}{Alt:42.73}{acc:[-0.15, 0.03, 1.07]}{gyr:[-8.14, -4.75, -53.88]}{resG:1.09}{temp:34.69}{comp:[-344, -921, -897]}{azi:146}{bea:6}{dir: SE}
2026-06-20 15:50:12.005 | 192.168.43.118:50510 | 1285098+$GPGSA,A,3,03,04,09,17,19,06,01,31,28,,,,2.44,1.45,1.97*00
2026-06-20 15:50:12.076 | 192.168.43.118:50510 | 1285169+$GPGSV,3,1,12,01,32,156,17,02,07,156,,03,63,079,15,04,77,222,22*71
2026-06-20 15:50:12.147 | 192.168.43.118:50510 | 1285240+$GPGSV,3,2,12,06,35,310,37,07,00,187,,09,40,234,22,17,21,244,22*7B
2026-06-20 15:50:12.218 | 192.168.43.118:50510 | 1285310+$GPGSV,3,3,12,19,26,277,19,26,03,088,,28,15,037,21,31,33,060,21*75
2026-06-20 15:50:12.833 | 192.168.43.118:50510 | 1285923+$GPRMC,135013.00,A,4735.77687,N,01903.62454,E,0.581,,200626,,,A*7F
$GPGGA Time:135013.00
Lati:4735.77687 : N Long:01903.62454 : E
SatN:09 HDOP:1.43 Elev:190.3
 | 192.168.43.118:50510 | 1286038+$GPGGA,135013.00,4735.77687,N,01903.62454,E,1,09,1.43,190.3,M,39.4,M,,*55
2026-06-20 15:50:12.952 | 192.168.43.118:50510 | {TsMs:1286038}{Pre:1008.19}{Alt:42.19}{acc:[-0.28, 0.08, 0.85]}{gyr:[-26.92, -0.22, -23.35]}{resG:0.89}{temp:34.70}{comp:[-343, -868, -905]}{azi:145}{bea:6}{dir: SE}
2026-06-20 15:50:13.007 | 192.168.43.118:50510 | 1286100+$GPGSA,A,3,03,04,09,17,19,06,01,31,28,,,,2.30,1.43,1.80*03
2026-06-20 15:50:13.080 | 192.168.43.118:50510 | 1286171+$GPGSV,3,1,12,01,32,156,17,02,07,156,,03,63,079,15,04,77,222,22*71
2026-06-20 15:50:13.149 | 192.168.43.118:50510 | 1286242+$GPGSV,3,2,12,06,35,310,36,07,00,187,,09,40,234,21,17,21,244,21*7A
2026-06-20 15:50:13.220 | 192.168.43.118:50510 | 1286312+$GPGSV,3,3,12,19,26,277,18,26,03,088,,28,15,037,20,31,33,060,23*77
2026-06-20 15:50:13.826 | 192.168.43.118:50510 | 1286918+$GPRMC,135014.00,A,4735.77603,N,01903.62419,E,0.788,,200626,,,A*76
$GPGGA Time:135014.00
Lati:4735.77603 : N Long:01903.62419 : E
SatN:07 HDOP:1.45 Elev:190.4
 | 192.168.43.118:50510 | 1287033+$GPGGA,135014.00,4735.77603,N,01903.62419,E,1,07,1.45,190.4,M,39.4,M,,*58
2026-06-20 15:50:13.951 | 192.168.43.118:50510 | {TsMs:1287033}{Pre:1008.09}{Alt:43.06}{acc:[-0.22, -0.03, 0.96]}{gyr:[-21.15, 16.49, 23.99]}{resG:0.99}{temp:34.70}{comp:[-351, -827, -905]}{azi:144}{bea:6}{dir: SE}
2026-06-20 15:50:13.998 | 192.168.43.118:50510 | 1287091+$GPGSA,A,3,04,09,17,19,06,31,28,,,,,,2.44,1.45,1.96*03
2026-06-20 15:50:14.069 | 192.168.43.118:50510 | 1287157+$GPGSV,3,1,12,01,32,156,,02,07,156,,03,63,079,,04,77,222,22*73
2026-06-20 15:50:14.135 | 192.168.43.118:50510 | 1287228+$GPGSV,3,2,12,06,35,310,36,07,00,187,,09,40,234,20,17,21,244,21*7B
2026-06-20 15:50:14.206 | 192.168.43.118:50510 | 1287299+$GPGSV,3,3,12,19,26,277,18,26,03,088,,28,15,037,19,31,33,060,22*7C
2026-06-20 15:50:14.829 | 192.168.43.118:50510 | 1287921+$GPRMC,135015.00,A,4735.77498,N,01903.62407,E,0.909,,200626,,,A*7F
$GPGGA Time:135015.00
Lati:4735.77498 : N Long:01903.62407 : E
SatN:09 HDOP:1.45 Elev:189.9
 | 192.168.43.118:50510 | 1288036+$GPGGA,135015.00,4735.77498,N,01903.62407,E,1,09,1.45,189.9,M,39.4,M,,*5D
2026-06-20 15:50:14.971 | 192.168.43.118:50510 | {TsMs:1288036}{Pre:1008.39}{Alt:40.56}{acc:[-0.88, -0.19, 0.77]}{gyr:[-8.78, -0.37, -81.89]}{resG:1.18}{temp:34.69}{comp:[-364, -835, -899]}{azi:143}{bea:6}{dir: SE}
2026-06-20 15:50:15.006 | 192.168.43.118:50510 | 1288098+$GPGSA,A,3,03,04,09,17,19,06,01,31,28,,,,2.44,1.45,1.96*01
2026-06-20 15:50:15.076 | 192.168.43.118:50510 | 1288169+$GPGSV,3,1,12,01,32,156,18,02,07,156,,03,63,079,17,04,77,222,22*7C
2026-06-20 15:50:15.146 | 192.168.43.118:50510 | 1288240+$GPGSV,3,2,12,06,35,310,33,07,00,187,,09,40,234,20,17,21,244,20*7F
2026-06-20 15:50:15.217 | 192.168.43.118:50510 | 1288310+$GPGSV,3,3,12,19,26,277,17,26,03,088,,28,15,037,21,31,33,060,21*7B
2026-06-20 15:50:15.830 | 192.168.43.118:50510 | 1288921+$GPRMC,135016.00,A,4735.77382,N,01903.62398,E,1.384,,200626,,,A*7F
$GPGGA Time:135016.00
Lati:4735.77382 : N Long:01903.62398 : E
SatN:09 HDOP:1.45 Elev:189.9
 | 192.168.43.118:50510 | 1289035+$GPGGA,135016.00,4735.77382,N,01903.62398,E,1,09,1.45,189.9,M,39.4,M,,*53
2026-06-20 15:50:15.951 | 192.168.43.118:50510 | {TsMs:1289036}{Pre:1008.20}{Alt:42.17}{acc:[-0.38, 0.03, 1.52]}{gyr:[1.83, -19.20, -5.69]}{resG:1.56}{temp:34.70}{comp:[-371, -854, -896]}{azi:143}{bea:6}{dir: SE}
2026-06-20 15:50:16.004 | 192.168.43.118:50510 | 1289098+$GPGSA,A,3,03,04,09,17,19,06,01,31,28,,,,2.44,1.45,1.96*01
2026-06-20 15:50:16.075 | 192.168.43.118:50510 | 1289168+$GPGSV,3,1,12,01,32,156,20,02,07,156,,03,63,079,18,04,77,222,22*78
2026-06-20 15:50:16.146 | 192.168.43.118:50510 | 1289239+$GPGSV,3,2,12,06,35,310,36,07,00,187,,09,40,234,19,17,21,244,21*71
2026-06-20 15:50:16.258 | 192.168.43.118:50510 | 1289310+$GPGSV,3,3,12,19,26,277,16,26,03,088,,28,15,037,20,31,33,060,21*7B
2026-06-20 15:50:16.829 | 192.168.43.118:50510 | 1289921+$GPRMC,135017.00,A,4735.77181,N,01903.62472,E,1.523,,200626,,,A*77
$GPGGA Time:135017.00
Lati:4735.77181 : N Long:01903.62472 : E
SatN:09 HDOP:0.97 Elev:188.4
 | 192.168.43.118:50510 | 1290036+$GPGGA,135017.00,4735.77181,N,01903.62472,E,1,09,0.97,188.4,M,39.4,M,,*52
2026-06-20 15:50:16.951 | 192.168.43.118:50510 | {TsMs:1290036}{Pre:1008.17}{Alt:42.42}{acc:[-0.23, -0.16, 0.87]}{gyr:[4.87, 4.07, -33.81]}{resG:0.91}{temp:34.71}{comp:[-379, -855, -896]}{azi:143}{bea:6}{dir: SE}
2026-06-20 15:50:17.005 | 192.168.43.118:50510 | 1290098+$GPGSA,A,3,03,04,09,17,19,06,01,31,28,,,,2.07,0.97,1.83*0C
2026-06-20 15:50:17.075 | 192.168.43.118:50510 | 1290169+$GPGSV,3,1,12,01,32,156,21,02,07,156,,03,63,079,19,04,77,222,22*78
2026-06-20 15:50:17.148 | 192.168.43.118:50510 | 1290240+$GPGSV,3,2,12,06,35,310,38,07,00,187,,09,40,234,19,17,21,244,19*74
2026-06-20 15:50:17.217 | 192.168.43.118:50510 | 1290310+$GPGSV,3,3,12,19,26,277,15,26,03,088,,28,15,037,20,31,33,060,20*79
2026-06-20 15:50:17.831 | 192.168.43.118:50510 | 1290922+$GPRMC,135018.00,A,4735.76988,N,01903.62474,E,1.760,,200626,,,A*7B
$GPGGA Time:135018.00
Lati:4735.76988 : N Long:01903.62474 : E
SatN:09 HDOP:0.97 Elev:187.3
 | 192.168.43.118:50510 | 1291037+$GPGGA,135018.00,4735.76988,N,01903.62474,E,1,09,0.97,187.3,M,39.4,M,,*53
2026-06-20 15:50:17.953 | 192.168.43.118:50510 | {TsMs:1291037}{Pre:1008.28}{Alt:41.44}{acc:[-0.60, -0.06, 0.97]}{gyr:[-4.78, -11.48, -33.59]}{resG:1.14}{temp:34.71}{comp:[-405, -848, -891]}{azi:141}{bea:6}{dir: SE}
2026-06-20 15:50:18.007 | 192.168.43.118:50510 | 1291099+$GPGSA,A,3,03,04,09,17,19,06,01,31,28,,,,2.07,0.97,1.83*0C
2026-06-20 15:50:18.078 | 192.168.43.118:50510 | 1291170+$GPGSV,3,1,12,01,32,156,22,02,07,156,,03,63,079,16,04,77,222,22*74
2026-06-20 15:50:18.149 | 192.168.43.118:50510 | 1291240+$GPGSV,3,2,12,06,35,310,35,07,00,187,,09,40,234,19,17,21,244,17*77
2026-06-20 15:50:18.218 | 192.168.43.118:50510 | 1291311+$GPGSV,3,3,12,19,26,277,15,26,03,088,,28,15,037,19,31,33,060,19*79
2026-06-20 15:50:18.834 | 192.168.43.118:50510 | 1291926+$GPRMC,135019.00,A,4735.76826,N,01903.62515,E,1.376,,200626,,,A*7A
$GPGGA Time:135019.00
Lati:4735.76826 : N Long:01903.62515 : E
SatN:09 HDOP:0.95 Elev:185.9
 | 192.168.43.118:50510 | 1292040+$GPGGA,135019.00,4735.76826,N,01903.62515,E,1,09,0.95,185.9,M,39.4,M,,*5B
2026-06-20 15:50:18.956 | 192.168.43.118:50510 | {TsMs:1292041}{Pre:1008.18}{Alt:42.30}{acc:[-0.33, -0.13, 0.98]}{gyr:[-0.64, 5.22, -47.01]}{resG:1.05}{temp:34.71}{comp:[-431, -830, -882]}{azi:139}{bea:6}{dir: SE}
2026-06-20 15:50:19.010 | 192.168.43.118:50510 | 1292103+$GPGSA,A,3,03,04,09,17,19,06,01,31,28,,,,1.84,0.95,1.58*00
2026-06-20 15:50:19.080 | 192.168.43.118:50510 | 1292174+$GPGSV,3,1,12,01,32,156,23,02,07,156,,03,63,079,15,04,77,222,22*76
2026-06-20 15:50:19.153 | 192.168.43.118:50510 | 1292244+$GPGSV,3,2,12,06,35,310,36,07,00,187,,09,40,234,20,17,21,244,18*71
2026-06-20 15:50:19.225 | 192.168.43.118:50510 | 1292315+$GPGSV,3,3,12,19,26,277,14,26,03,088,,28,15,037,19,31,33,060,20*72
2026-06-20 15:50:19.830 | 192.168.43.118:50510 | 1292922+$GPRMC,135020.00,A,4735.76696,N,01903.62547,E,0.925,,200626,,,A*7F
$GPGGA Time:135020.00
Lati:4735.76696 : N Long:01903.62547 : E
SatN:09 HDOP:0.97 Elev:185.0
 | 192.168.43.118:50510 | 1293036+$GPGGA,135020.00,4735.76696,N,01903.62547,E,1,09,0.97,185.0,M,39.4,M,,*58
2026-06-20 15:50:19.951 | 192.168.43.118:50510 | {TsMs:1293036}{Pre:1008.21}{Alt:42.03}{acc:[-0.33, -0.13, 0.98]}{gyr:[-1.37, 2.40, -46.30]}{resG:1.04}{temp:34.71}{comp:[-440, -779, -875]}{azi:137}{bea:6}{dir: SE}
2026-06-20 15:50:20.005 | 192.168.43.118:50510 | 1293098+$GPGSA,A,3,03,04,09,17,19,06,01,31,28,,,,2.07,0.97,1.83*0C
2026-06-20 15:50:20.076 | 192.168.43.118:50510 | 1293169+$GPGSV,3,1,12,01,32,156,23,02,07,156,,03,63,079,16,04,77,222,22*75
2026-06-20 15:50:20.146 | 192.168.43.118:50510 | 1293240+$GPGSV,3,2,12,06,35,310,35,07,00,187,,09,40,234,19,17,21,244,18*78
2026-06-20 15:50:20.831 | 192.168.43.118:50510 | 1293922+$GPRMC,135021.00,A,4735.76586,N,01903.62579,E,0.757,,200626,,,A*7A
$GPGGA Time:135021.00
Lati:4735.76586 : N Long:01903.62579 : E
SatN:09 HDOP:0.95 Elev:183.9
 | 192.168.43.118:50510 | 1294037+$GPGGA,135021.00,4735.76586,N,01903.62579,E,1,09,0.95,183.9,M,39.4,M,,*5B
2026-06-20 15:50:20.951 | 192.168.43.118:50510 | {TsMs:1294037}{Pre:1008.22}{Alt:41.96}{acc:[-0.33, -0.12, 0.99]}{gyr:[-1.96, 1.82, -41.43]}{resG:1.05}{temp:34.71}{comp:[-439, -725, -868]}{azi:135}{bea:6}{dir: SE}
2026-06-20 15:50:21.006 | 192.168.43.118:50510 | 1294099+$GPGSA,A,3,03,04,09,17,19,06,01,31,28,,,,1.84,0.95,1.58*00
2026-06-20 15:50:21.078 | 192.168.43.118:50510 | 1294170+$GPGSV,3,1,12,01,32,156,23,02,07,156,,03,63,079,16,04,77,222,20*77
2026-06-20 15:50:21.148 | 192.168.43.118:50510 | 1294241+$GPGSV,3,2,12,06,35,310,35,07,00,187,,09,40,234,19,17,21,244,16*76
2026-06-20 15:50:21.218 | 192.168.43.118:50510 | 1294311+$GPGSV,3,3,12,19,26,277,14,26,03,088,,28,15,037,18,31,33,060,19*79
2026-06-20 15:50:21.836 | 192.168.43.118:50510 | 1294925+$GPRMC,135022.00,A,4735.76499,N,01903.62566,E,0.654,,200626,,,A*7A
$GPGGA Time:135022.00
Lati:4735.76499 : N Long:01903.62566 : E
SatN:09 HDOP:0.95 Elev:182.8
 | 192.168.43.118:50510 | 1295040+$GPGGA,135022.00,4735.76499,N,01903.62566,E,1,09,0.95,182.8,M,39.4,M,,*59
2026-06-20 15:50:21.958 | 192.168.43.118:50510 | {TsMs:1295040}{Pre:1008.22}{Alt:41.95}{acc:[-0.35, -0.12, 0.99]}{gyr:[-2.22, 1.87, -41.89]}{resG:1.05}{temp:34.72}{comp:[-441, -689, -862]}{azi:134}{bea:5}{dir:ESE}
2026-06-20 15:50:22.009 | 192.168.43.118:50510 | 1295102+$GPGSA,A,3,03,04,09,17,19,06,01,31,28,,,,1.84,0.95,1.58*00
2026-06-20 15:50:22.079 | 192.168.43.118:50510 | 1295173+$GPGSV,3,1,12,01,32,156,23,02,07,156,,03,63,079,17,04,77,222,20*76
2026-06-20 15:50:22.152 | 192.168.43.118:50510 | 1295244+$GPGSV,3,2,12,06,35,310,35,07,00,187,,09,40,234,20,17,21,244,14*7E
2026-06-20 15:50:22.221 | 192.168.43.118:50510 | 1295314+$GPGSV,3,3,12,19,26,277,12,26,03,088,,28,15,037,19,31,33,060,18*7F
2026-06-20 15:50:22.833 | 192.168.43.118:50510 | 1295924+$GPRMC,135023.00,A,4735.76419,N,01903.62589,E,0.301,,200626,,,A*77
$GPGGA Time:135023.00
Lati:4735.76419 : N Long:01903.62589 : E
SatN:09 HDOP:0.95 Elev:182.0
 | 192.168.43.118:50510 | 1296039+$GPGGA,135023.00,4735.76419,N,01903.62589,E,1,09,0.95,182.0,M,39.4,M,,*59
2026-06-20 15:50:22.954 | 192.168.43.118:50510 | {TsMs:1296039}{Pre:1008.21}{Alt:42.01}{acc:[-0.32, -0.12, 0.99]}{gyr:[-2.69, 1.29, -44.09]}{resG:1.05}{temp:34.71}{comp:[-439, -686, -862]}{azi:134}{bea:5}{dir:ESE}
2026-06-20 15:50:23.009 | 192.168.43.118:50510 | 1296101+$GPGSA,A,3,03,04,09,17,19,06,01,31,28,,,,1.84,0.95,1.58*00
2026-06-20 15:50:23.079 | 192.168.43.118:50510 | 1296172+$GPGSV,3,1,12,01,32,156,24,02,07,156,,03,63,079,17,04,77,222,20*71
2026-06-20 15:50:23.150 | 192.168.43.118:50510 | 1296243+$GPGSV,3,2,12,06,35,310,35,07,00,187,,09,40,234,20,17,21,244,13*79
2026-06-20 15:50:23.220 | 192.168.43.118:50510 | 1296313+$GPGSV,3,3,12,19,26,277,13,26,03,088,,28,15,037,20,31,33,060,19*75
2026-06-20 15:50:23.833 | 192.168.43.118:50510 | 1296924+$GPRMC,135024.00,A,4735.76351,N,01903.62611,E,0.036,,200626,,,A*7E
$GPGGA Time:135024.00
Lati:4735.76351 : N Long:01903.62611 : E
SatN:09 HDOP:0.95 Elev:181.0
 | 192.168.43.118:50510 | 1297039+$GPGGA,135024.00,4735.76351,N,01903.62611,E,1,09,0.95,181.0,M,39.4,M,,*54
2026-06-20 15:50:23.953 | 192.168.43.118:50510 | {TsMs:1297039}{Pre:1008.23}{Alt:41.91}{acc:[-0.32, -0.10, 0.99]}{gyr:[-2.54, 4.47, -42.19]}{resG:1.05}{temp:34.73}{comp:[-436, -703, -864]}{azi:135}{bea:6}{dir: SE}
2026-06-20 15:50:24.068 | 192.168.43.118:50510 | 1297101+$GPGSA,A,3,03,04,09,17,19,06,01,31,28,,,,1.84,0.95,1.58*00
2026-06-20 15:50:24.078 | 192.168.43.118:50510 | 1297172+$GPGSV,3,1,12,01,32,156,24,02,07,156,,03,63,079,17,04,77,222,20*71
2026-06-20 15:50:24.149 | 192.168.43.118:50510 | 1297243+$GPGSV,3,2,12,06,35,310,35,07,00,187,,09,40,234,19,17,21,244,15*75
2026-06-20 15:50:24.222 | 192.168.43.118:50510 | 1297313+$GPGSV,3,3,12,19,26,277,13,26,03,088,,28,15,037,20,31,33,060,19*75
2026-06-20 15:50:24.834 | 192.168.43.118:50510 | 1297924+$GPRMC,135025.00,A,4735.76282,N,01903.62611,E,0.101,,200626,,,A*75
2026-06-20 15:50:25.078 | 192.168.43.118:50510 | 1298171+$GPGSV,3,1,12,01,32,156,24,02,07,156,,03,63,079,17,04,77,222,18*7A
2026-06-20 15:50:25.149 | 192.168.43.118:50510 | 1298242+$GPGSV,3,2,12,06,35,310,35,07,00,187,,09,40,234,18,17,21,244,19*78
2026-06-20 15:50:25.219 | 192.168.43.118:50510 | 1298313+$GPGSV,3,3,12,19,26,277,15,26,03,088,,28,15,037,20,31,33,060,21*78
2026-06-20 15:50:25.832 | 192.168.43.118:50510 | 1298924+$GPRMC,135026.00,A,4735.76209,N,01903.62581,E,0.291,,200626,,,A*75
$GPGGA Time:135026.00
Lati:4735.76209 : N Long:01903.62581 : E
SatN:09 HDOP:0.95 Elev:179.3
 | 192.168.43.118:50510 | 1299039+$GPGGA,135026.00,4735.76209,N,01903.62581,E,1,09,0.95,179.3,M,39.4,M,,*54
2026-06-20 15:50:25.956 | 192.168.43.118:50510 | {TsMs:1299039}{Pre:1008.20}{Alt:42.11}{acc:[-0.31, -0.11, 0.99]}{gyr:[-3.63, 1.40, -39.15]}{resG:1.05}{temp:34.72}{comp:[-441, -732, -866]}{azi:135}{bea:6}{dir: SE}
2026-06-20 15:50:26.008 | 192.168.43.118:50510 | 1299101+$GPGSA,A,3,03,04,09,17,19,06,01,31,28,,,,1.84,0.95,1.58*00
2026-06-20 15:50:26.082 | 192.168.43.118:50510 | 1299172+$GPGSV,3,1,12,01,32,156,25,02,07,156,,03,63,079,17,04,77,222,18*7B
2026-06-20 15:50:26.149 | 192.168.43.118:50510 | 1299243+$GPGSV,3,2,12,06,35,310,35,07,00,187,,09,40,234,16,17,21,244,19*76
2026-06-20 15:50:26.221 | 192.168.43.118:50510 | 1299313+$GPGSV,3,3,12,19,26,277,16,26,03,088,,28,15,037,20,31,33,060,21*7B
2026-06-20 15:50:26.836 | 192.168.43.118:50510 | 1299925+$GPRMC,135027.00,A,4735.76160,N,01903.62541,E,0.582,,200626,,,A*71
$GPGGA Time:135027.00
Lati:4735.76160 : N Long:01903.62541 : E
SatN:09 HDOP:0.95 Elev:178.6
 | 192.168.43.118:50510 | 1300039+$GPGGA,135027.00,4735.76160,N,01903.62541,E,1,09,0.95,178.6,M,39.4,M,,*51
2026-06-20 15:50:26.956 | 192.168.43.118:50510 | {TsMs:1300039}{Pre:1008.23}{Alt:41.85}{acc:[-0.31, -0.11, 0.99]}{gyr:[-2.57, 2.63, -41.40]}{resG:1.05}{temp:34.73}{comp:[-446, -737, -862]}{azi:135}{bea:6}{dir: SE}
2026-06-20 15:50:27.009 | 192.168.43.118:50510 | 1300101+$GPGSA,A,3,03,04,09,17,19,06,01,31,28,,,,1.84,0.95,1.58*00
2026-06-20 15:50:27.080 | 192.168.43.118:50510 | 1300172+$GPGSV,3,1,12,01,32,156,24,02,07,156,,03,63,079,18,04,77,222,17*7A
2026-06-20 15:50:27.150 | 192.168.43.118:50510 | 1300243+$GPGSV,3,2,12,06,35,310,35,07,00,187,,09,40,234,16,17,21,244,21*7D
2026-06-20 15:50:27.221 | 192.168.43.118:50510 | 1300314+$GPGSV,3,3,12,19,26,277,17,26,03,088,,28,15,037,21,31,33,060,22*78
2026-06-20 15:50:27.832 | 192.168.43.118:50510 | 1300924+$GPRMC,135028.00,A,4735.76103,N,01903.62522,E,0.551,,200626,,,A*70
$GPGGA Time:135028.00
Lati:4735.76103 : N Long:01903.62522 : E
SatN:09 HDOP:0.95 Elev:177.8
 | 192.168.43.118:50510 | 1301038+$GPGGA,135028.00,4735.76103,N,01903.62522,E,1,09,0.95,177.8,M,39.4,M,,*5F
2026-06-20 15:50:27.973 | 192.168.43.118:50510 | {TsMs:1301038}{Pre:1008.22}{Alt:41.99}{acc:[-0.31, -0.12, 0.99]}{gyr:[-2.46, 1.54, -42.53]}{resG:1.05}{temp:34.74}{comp:[-451, -735, -861]}{azi:135}{bea:6}{dir: SE}
2026-06-20 15:50:28.012 | 192.168.43.118:50510 | 1301101+$GPGSA,A,3,03,04,09,17,19,06,01,31,28,,,,1.84,0.95,1.58*00
2026-06-20 15:50:28.085 | 192.168.43.118:50510 | 1301171+$GPGSV,3,1,12,01,32,156,25,02,07,156,,03,63,079,18,04,77,222,17*7B
2026-06-20 15:50:28.149 | 192.168.43.118:50510 | 1301242+$GPGSV,3,2,12,06,35,310,35,07,00,187,,09,40,234,15,17,21,244,22*7D
2026-06-20 15:50:28.221 | 192.168.43.118:50510 | 1301313+$GPGSV,3,3,12,19,26,277,17,26,03,088,,28,15,037,22,31,33,060,24*7D
2026-06-20 15:50:28.833 | 192.168.43.118:50510 | 1301922+$GPRMC,135029.00,A,4735.76037,N,01903.62518,E,0.207,,200626,,,A*7A
$GPGGA Time:135029.00
Lati:4735.76037 : N Long:01903.62518 : E
SatN:09 HDOP:0.95 Elev:177.1
 | 192.168.43.118:50510 | 1302037+$GPGGA,135029.00,4735.76037,N,01903.62518,E,1,09,0.95,177.1,M,39.4,M,,*58
2026-06-20 15:50:28.955 | 192.168.43.118:50510 | {TsMs:1302037}{Pre:1008.22}{Alt:41.94}{acc:[-0.31, -0.12, 0.99]}{gyr:[-0.28, 2.34, -44.63]}{resG:1.04}{temp:34.73}{comp:[-453, -728, -861]}{azi:135}{bea:6}{dir: SE}
2026-06-20 15:50:29.016 | 192.168.43.118:50510 | 1302099+$GPGSA,A,3,03,04,09,17,19,06,01,31,28,,,,1.84,0.95,1.58*00
2026-06-20 15:50:29.079 | 192.168.43.118:50510 | 1302170+$GPGSV,3,1,12,01,32,156,25,02,07,156,,03,63,079,19,04,77,222,17*7A
2026-06-20 15:50:29.151 | 192.168.43.118:50510 | 1302241+$GPGSV,3,2,12,06,35,310,35,07,00,187,,09,40,234,16,17,21,244,22*7E
2026-06-20 15:50:29.242 | 192.168.43.118:50510 | 1302311+$GPGSV,3,3,12,19,26,277,17,26,03,088,,28,15,037,23,31,33,060,24*7C
2026-06-20 15:50:31.054 | 192.168.43.118:50510 | 1302924+$GPRMC,135030.00,A,4735.75984,N,01903.62513,E,0.083,,200626,,,A*75
$GPGGA Time:135030.00
Lati:4735.75984 : N Long:01903.62513 : E
SatN:09 HDOP:0.95 Elev:176.3
 | 192.168.43.118:50510 | 1303038+$GPGGA,135030.00,4735.75984,N,01903.62513,E,1,09,0.95,176.3,M,39.4,M,,*5A
2026-06-20 15:50:31.056 | 192.168.43.118:50510 | {TsMs:1303039}{Pre:1008.17}{Alt:42.42}{acc:[-0.30, -0.18, 0.99]}{gyr:[3.32, 20.96, -56.21]}{resG:1.05}{temp:34.74}{comp:[-443, -727, -860]}{azi:135}{bea:6}{dir: SE}
2026-06-20 15:50:31.057 | 192.168.43.118:50510 | 1303101+$GPGSA,A,3,03,04,09,17,19,06,01,31,28,,,,1.84,0.95,1.58*00
2026-06-20 15:50:31.058 | 192.168.43.118:50510 | 1303172+$GPGSV,3,1,12,01,32,156,25,02,07,156,,03,63,079,19,04,77,222,18*75
2026-06-20 15:50:31.058 | 192.168.43.118:50510 | 1303242+$GPGSV,3,2,12,06,35,310,35,07,00,187,,09,40,234,16,17,21,244,21*7D
2026-06-20 15:50:31.059 | 192.168.43.118:50510 | 1303313+$GPGSV,3,3,12,19,26,277,15,26,03,088,,28,15,037,23,31,33,060,24*7E
2026-06-20 15:50:31.059 | 192.168.43.118:50510 | 1303925+$GPRMC,135031.00,A,4735.75945,N,01903.62514,E,0.206,,200626,,,A*71
$GPGGA Time:135031.00
Lati:4735.75945 : N Long:01903.62514 : E
SatN:09 HDOP:0.95 Elev:175.8
 | 192.168.43.118:50510 | 1304040+$GPGGA,135031.00,4735.75945,N,01903.62514,E,1,09,0.95,175.8,M,39.4,M,,*59
2026-06-20 15:50:31.065 | 192.168.43.118:50510 | {TsMs:1304040}{Pre:1008.20}{Alt:42.17}{acc:[-0.29, 0.02, 0.94]}{gyr:[-12.30, 6.99, -36.58]}{resG:0.98}{temp:34.74}{comp:[-425, -777, -862]}{azi:138}{bea:6}{dir: SE}
2026-06-20 15:50:31.066 | 192.168.43.118:50510 | 1304102+$GPGSA,A,3,03,04,09,17,19,06,01,31,28,,,,1.84,0.95,1.58*00
2026-06-20 15:50:31.099 | 192.168.43.118:50510 | 1304173+$GPGSV,3,1,12,01,32,156,24,02,07,156,,03,63,079,18,04,77,222,21*7F
2026-06-20 15:50:31.152 | 192.168.43.118:50510 | 1304244+$GPGSV,3,2,12,06,35,310,34,07,00,187,,09,40,234,18,17,21,244,21*72
2026-06-20 15:50:31.221 | 192.168.43.118:50510 | 1304314+$GPGSV,3,3,12,19,26,277,15,26,03,088,,28,15,037,21,31,33,060,22*7A
2026-06-20 15:50:31.834 | 192.168.43.118:50510 | 1304924+$GPRMC,135032.00,A,4735.75878,N,01903.62506,E,0.292,,200626,,,A*73
$GPGGA Time:135032.00
Lati:4735.75878 : N Long:01903.62506 : E
SatN:09 HDOP:0.95 Elev:175.3
 | 192.168.43.118:50510 | 1305039+$GPGGA,135032.00,4735.75878,N,01903.62506,E,1,09,0.95,175.3,M,39.4,M,,*5D
2026-06-20 15:50:31.954 | 192.168.43.118:50510 | {TsMs:1305039}{Pre:1008.20}{Alt:42.17}{acc:[-0.27, -0.15, 0.99]}{gyr:[5.84, -6.26, -51.61]}{resG:1.03}{temp:34.74}{comp:[-411, -829, -862]}{azi:140}{bea:6}{dir: SE}
2026-06-20 15:50:32.008 | 192.168.43.118:50510 | 1305101+$GPGSA,A,3,03,04,09,17,19,06,01,31,28,,,,1.84,0.95,1.58*00
2026-06-20 15:50:32.080 | 192.168.43.118:50510 | 1305172+$GPGSV,3,1,12,01,32,156,24,02,07,156,,03,63,079,16,04,77,222,22*72
2026-06-20 15:50:32.151 | 192.168.43.118:50510 | 1305243+$GPGSV,3,2,12,06,35,310,35,07,00,187,,09,40,234,20,17,21,244,19*73
2026-06-20 15:50:32.221 | 192.168.43.118:50510 | 1305313+$GPGSV,3,3,12,19,26,277,16,26,03,088,,28,15,037,20,31,33,060,21*7B
2026-06-20 15:50:32.830 | 192.168.43.118:50510 | 1305922+$GPRMC,135033.00,A,4735.75797,N,01903.62479,E,0.923,,200626,,,A*74
$GPGGA Time:135033.00
Lati:4735.75797 : N Long:01903.62479 : E
SatN:09 HDOP:0.97 Elev:175.3
 | 192.168.43.118:50510 | 1306036+$GPGGA,135033.00,4735.75797,N,01903.62479,E,1,09,0.97,175.3,M,39.4,M,,*59
2026-06-20 15:50:32.950 | 192.168.43.118:50510 | {TsMs:1306036}{Pre:1008.23}{Alt:41.86}{acc:[-0.39, -0.03, 0.97]}{gyr:[-7.74, -5.01, -29.87]}{resG:1.05}{temp:34.74}{comp:[-406, -852, -858]}{azi:141}{bea:6}{dir: SE}
2026-06-20 15:50:33.007 | 192.168.43.118:50510 | 1306099+$GPGSA,A,3,03,04,09,17,19,06,01,31,28,,,,2.06,0.97,1.82*0C
2026-06-20 15:50:33.076 | 192.168.43.118:50510 | 1306169+$GPGSV,3,1,12,01,32,156,24,02,07,156,,03,63,079,15,04,77,222,23*70
2026-06-20 15:50:33.196 | 192.168.43.118:50510 | 1306240+$GPGSV,3,2,12,06,35,310,37,07,00,187,,09,40,234,19,17,21,244,17*75
2026-06-20 15:50:33.226 | 192.168.43.118:50510 | 1306311+$GPGSV,3,3,12,19,26,277,18,26,03,088,,28,15,037,19,31,33,060,19*74
2026-06-20 15:50:33.831 | 192.168.43.118:50510 | 1306922+$GPRMC,135034.00,A,4735.75762,N,01903.62493,E,0.326,,200626,,,A*72
$GPGGA Time:135034.00
Lati:4735.75762 : N Long:01903.62493 : E
SatN:09 HDOP:1.01 Elev:174.7
 | 192.168.43.118:50510 | 1307037+$GPGGA,135034.00,4735.75762,N,01903.62493,E,1,09,1.01,174.7,M,39.4,M,,*5B
2026-06-20 15:50:33.952 | 192.168.43.118:50510 | {TsMs:1307037}{Pre:1008.25}{Alt:41.72}{acc:[-0.45, -0.10, 0.96]}{gyr:[0.55, 3.31, -61.17]}{resG:1.06}{temp:34.74}{comp:[-399, -880, -854]}{azi:142}{bea:6}{dir: SE}
2026-06-20 15:50:34.032 | 192.168.43.118:50510 | 1307099+$GPGSA,A,3,03,04,09,17,19,06,01,31,28,,,,1.89,1.01,1.59*00
2026-06-20 15:50:34.079 | 192.168.43.118:50510 | 1307170+$GPGSV,3,1,12,01,32,156,23,02,07,156,,03,63,079,16,04,77,222,23*74
2026-06-20 15:50:34.204 | 192.168.43.118:50510 | 1307240+$GPGSV,3,2,12,06,35,310,34,07,00,187,,09,40,234,19,17,21,244,18*79
2026-06-20 15:50:34.231 | 192.168.43.118:50510 | 1307311+$GPGSV,3,3,12,19,26,277,18,26,03,088,,28,15,037,19,31,33,060,18*75
2026-06-20 15:50:34.832 | 192.168.43.118:50510 | 1307921+$GPRMC,135035.00,A,4735.75725,N,01903.62540,E,0.543,,200626,,,A*7A
$GPGGA Time:135035.00
Lati:4735.75725 : N Long:01903.62540 : E
SatN:09 HDOP:1.01 Elev:173.9
 | 192.168.43.118:50510 | 1308035+$GPGGA,135035.00,4735.75725,N,01903.62540,E,1,09,1.01,173.9,M,39.4,M,,*5F
2026-06-20 15:50:34.951 | 192.168.43.118:50510 | {TsMs:1308035}{Pre:1008.24}{Alt:41.77}{acc:[-0.43, -0.22, 1.04]}{gyr:[4.80, -3.68, -75.91]}{resG:1.14}{temp:34.74}{comp:[-399, -898, -846]}{azi:143}{bea:6}{dir: SE}
2026-06-20 15:50:35.005 | 192.168.43.118:50510 | 1308097+$GPGSA,A,3,03,04,09,17,19,06,01,31,28,,,,1.89,1.01,1.59*00
2026-06-20 15:50:35.076 | 192.168.43.118:50510 | 1308168+$GPGSV,3,1,12,01,32,156,21,02,07,156,,03,63,079,18,04,77,222,23*78
2026-06-20 15:50:35.147 | 192.168.43.118:50510 | 1308239+$GPGSV,3,2,12,06,35,310,35,07,00,187,,09,40,234,19,17,21,244,17*77
2026-06-20 15:50:35.218 | 192.168.43.118:50510 | 1308310+$GPGSV,3,3,12,19,26,277,19,26,03,088,,28,15,037,17,31,33,060,17*75
2026-06-20 15:50:35.830 | 192.168.43.118:50510 | 1308921+$GPRMC,135036.00,A,4735.75715,N,01903.62598,E,0.649,,200626,,,A*76
$GPGGA Time:135036.00
Lati:4735.75715 : N Long:01903.62598 : E
SatN:09 HDOP:0.97 Elev:173.8
 | 192.168.43.118:50510 | 1309036+$GPGGA,135036.00,4735.75715,N,01903.62598,E,1,09,0.97,173.8,M,39.4,M,,*55
2026-06-20 15:50:35.951 | 192.168.43.118:50510 | {TsMs:1309036}{Pre:1008.17}{Alt:42.34}{acc:[-0.37, 0.00, 0.97]}{gyr:[-0.22, 8.26, -48.56]}{resG:1.04}{temp:34.75}{comp:[-411, -861, -837]}{azi:141}{bea:6}{dir: SE}
2026-06-20 15:50:36.007 | 192.168.43.118:50510 | 1309098+$GPGSA,A,3,03,04,09,17,19,06,01,31,28,,,,2.06,0.97,1.82*0C
2026-06-20 15:50:36.076 | 192.168.43.118:50510 | 1309169+$GPGSV,3,1,12,01,32,156,22,02,07,156,,03,63,079,15,04,77,222,23*76
2026-06-20 15:50:36.146 | 192.168.43.118:50510 | 1309240+$GPGSV,3,2,12,06,35,310,35,07,00,187,,09,40,234,20,17,21,244,18*72
2026-06-20 15:50:36.218 | 192.168.43.118:50510 | 1309310+$GPGSV,3,3,12,19,26,277,17,26,03,088,,28,15,037,16,31,33,060,17*7A
2026-06-20 15:50:36.831 | 192.168.43.118:50510 | 1309922+$GPRMC,135037.00,A,4735.75674,N,01903.62648,E,0.703,,200626,,,A*70
$GPGGA Time:135037.00
Lati:4735.75674 : N Long:01903.62648 : E
SatN:09 HDOP:0.95 Elev:173.3
 | 192.168.43.118:50510 | 1310037+$GPGGA,135037.00,4735.75674,N,01903.62648,E,1,09,0.95,173.3,M,39.4,M,,*55
2026-06-20 15:50:36.953 | 192.168.43.118:50510 | {TsMs:1310037}{Pre:1008.17}{Alt:42.42}{acc:[-0.29, -0.15, 0.98]}{gyr:[9.61, 9.86, -61.13]}{resG:1.03}{temp:34.75}{comp:[-417, -829, -832]}{azi:140}{bea:6}{dir: SE}
2026-06-20 15:50:37.007 | 192.168.43.118:50510 | 1310099+$GPGSA,A,3,03,04,09,17,19,06,01,31,28,,,,1.84,0.95,1.58*00
2026-06-20 15:50:37.098 | 192.168.43.118:50510 | 1310170+$GPGSV,3,1,12,01,32,156,23,02,07,156,,03,63,079,15,04,77,222,23*77
2026-06-20 15:50:37.153 | 192.168.43.118:50510 | 1310241+$GPGSV,3,2,12,06,35,310,36,07,00,187,,09,40,234,22,17,21,244,16*7D
2026-06-20 15:50:37.219 | 192.168.43.118:50510 | 1310311+$GPGSV,3,3,12,19,26,277,16,26,03,088,,28,15,037,14,31,33,060,21*7C
2026-06-20 15:50:39.320 | 192.168.43.118:50510 | 1310923+$GPRMC,135038.00,A,4735.75631,N,01903.62650,E,0.147,,200626,,,A*71
$GPGGA Time:135038.00
Lati:4735.75631 : N Long:01903.62650 : E
SatN:09 HDOP:0.95 Elev:173.3
 | 192.168.43.118:50510 | 1311038+$GPGGA,135038.00,4735.75631,N,01903.62650,E,1,09,0.95,173.3,M,39.4,M,,*52
2026-06-20 15:50:39.324 | 192.168.43.118:50510 | {TsMs:1311038}{Pre:1008.15}{Alt:42.59}{acc:[-0.28, -0.05, 0.94]}{gyr:[-9.33, 5.35, -36.31]}{resG:0.98}{temp:34.76}{comp:[-407, -825, -829]}{azi:140}{bea:6}{dir: SE}
2026-06-20 15:50:39.325 | 192.168.43.118:50510 | 1311100+$GPGSA,A,3,03,04,09,17,19,06,01,31,28,,,,1.84,0.95,1.57*0F
2026-06-20 15:50:39.326 | 192.168.43.118:50510 | 1311171+$GPGSV,3,1,12,01,32,156,22,02,07,156,,03,63,079,10,04,77,222,23*73
2026-06-20 15:50:39.327 | 192.168.43.118:50510 | 1311242+$GPGSV,3,2,12,06,35,310,36,07,00,187,,09,40,234,20,17,21,244,16*7F
2026-06-20 15:50:39.327 | 192.168.43.118:50510 | 1311312+$GPGSV,3,3,12,19,26,277,16,26,03,088,,28,15,037,19,31,33,060,20*70
2026-06-20 15:50:39.328 | 192.168.43.118:50510 | 1311920+$GPRMC,135039.00,A,4735.75579,N,01903.62667,E,0.626,,200626,,,A*7B
$GPGGA Time:135039.00
Lati:4735.75579 : N Long:01903.62667 : E
SatN:08 HDOP:0.97 Elev:173.2
 | 192.168.43.118:50510 | 1312034+$GPGGA,135039.00,4735.75579,N,01903.62667,E,1,08,0.97,173.2,M,39.4,M,,*5A
2026-06-20 15:50:39.330 | 192.168.43.118:50510 | {TsMs:1312034}{Pre:1008.19}{Alt:42.22}{acc:[-0.23, -0.14, 0.89]}{gyr:[3.23, -1.45, -40.12]}{resG:0.93}{temp:34.77}{comp:[-399, -816, -825]}{azi:140}{bea:6}{dir: SE}
2026-06-20 15:50:39.331 | 192.168.43.118:50510 | 1312094+$GPGSA,A,3,04,09,17,19,06,01,31,28,,,,,2.06,0.97,1.82*0F
2026-06-20 15:50:39.331 | 192.168.43.118:50510 | 1312165+$GPGSV,3,1,12,01,32,156,22,02,07,156,,03,63,079,08,04,77,222,22*7B
2026-06-20 15:50:39.332 | 192.168.43.118:50510 | 1312236+$GPGSV,3,2,12,06,35,310,35,07,00,187,,09,40,234,22,17,21,244,16*7E
2026-06-20 15:50:39.333 | 192.168.43.118:50510 | 1312306+$GPGSV,3,3,12,19,26,277,16,26,03,088,,28,15,037,18,31,33,060,18*7A
2026-06-20 15:50:39.829 | 192.168.43.118:50510 | 1312921+$GPRMC,135040.00,A,4735.75543,N,01903.62761,E,1.235,,200626,,,A*7C
$GPGGA Time:135040.00
Lati:4735.75543 : N Long:01903.62761 : E
SatN:08 HDOP:0.97 Elev:173.2
 | 192.168.43.118:50510 | 1313036+$GPGGA,135040.00,4735.75543,N,01903.62761,E,1,08,0.97,173.2,M,39.4,M,,*5A
2026-06-20 15:50:39.953 | 192.168.43.118:50510 | {TsMs:1313036}{Pre:1008.18}{Alt:42.28}{acc:[-0.45, -0.15, 0.94]}{gyr:[3.26, 3.13, -57.46]}{resG:1.05}{temp:34.76}{comp:[-397, -802, -823]}{azi:140}{bea:6}{dir: SE}
2026-06-20 15:50:40.003 | 192.168.43.118:50510 | 1313096+$GPGSA,A,3,04,09,17,19,06,01,31,28,,,,,2.06,0.97,1.82*0F
2026-06-20 15:50:40.075 | 192.168.43.118:50510 | 1313167+$GPGSV,3,1,12,01,32,156,22,02,07,156,,03,63,079,08,04,77,222,22*7B
2026-06-20 15:50:40.144 | 192.168.43.118:50510 | 1313238+$GPGSV,3,2,12,06,35,310,36,07,00,187,,09,40,234,22,17,21,244,17*7C
2026-06-20 15:50:40.217 | 192.168.43.118:50510 | 1313308+$GPGSV,3,3,12,19,26,277,18,26,03,088,,28,15,037,18,31,33,060,20*7F
2026-06-20 15:50:40.830 | 192.168.43.118:50510 | 1313921+$GPRMC,135041.00,A,4735.75500,N,01903.62770,E,0.659,,200626,,,A*75
$GPGGA Time:135041.00
Lati:4735.75500 : N Long:01903.62770 : E
SatN:08 HDOP:0.97 Elev:172.9
 | 192.168.43.118:50510 | 1314035+$GPGGA,135041.00,4735.75500,N,01903.62770,E,1,08,0.97,172.9,M,39.4,M,,*56
2026-06-20 15:50:42.456 | 192.168.43.118:50510 | {TsMs:1314036}{Pre:1008.16}{Alt:42.49}{acc:[-0.33, -0.06, 0.93]}{gyr:[-6.88, 11.85, -47.79]}{resG:0.99}{temp:34.77}{comp:[-386, -797, -822]}{azi:141}{bea:6}{dir: SE}
2026-06-20 15:50:42.457 | 192.168.43.118:50510 | 1314096+$GPGSA,A,3,04,09,17,19,06,01,31,28,,,,,2.06,0.97,1.82*0F
2026-06-20 15:50:42.457 | 192.168.43.118:50510 | 1314167+$GPGSV,3,1,12,01,32,156,23,02,07,156,,03,63,079,09,04,77,222,22*7B
2026-06-20 15:50:42.458 | 192.168.43.118:50510 | 1314237+$GPGSV,3,2,12,06,35,310,35,07,00,187,,09,40,234,22,17,21,244,18*70
2026-06-20 15:50:42.459 | 192.168.43.118:50510 | 1314308+$GPGSV,3,3,12,19,26,277,17,26,03,088,,28,15,037,17,31,33,060,21*7E
2026-06-20 15:50:42.459 | 192.168.43.118:50510 | 1314921+$GPRMC,135042.00,A,4735.75509,N,01903.62802,E,0.424,,200626,,,A*7D
$GPGGA Time:135042.00
Lati:4735.75509 : N Long:01903.62802 : E
SatN:09 HDOP:0.97 Elev:173.2
 | 192.168.43.118:50510 | 1315035+$GPGGA,135042.00,4735.75509,N,01903.62802,E,1,09,0.97,173.2,M,39.4,M,,*5D
2026-06-20 15:50:42.461 | 192.168.43.118:50510 | {TsMs:1315036}{Pre:1008.19}{Alt:42.22}{acc:[-0.33, -0.05, 1.32]}{gyr:[9.53, -20.63, -38.72]}{resG:1.36}{temp:34.77}{comp:[-379, -806, -823]}{azi:141}{bea:6}{dir: SE}
2026-06-20 15:50:42.462 | 192.168.43.118:50510 | 1315098+$GPGSA,A,3,03,04,09,17,19,06,01,31,28,,,,2.06,0.97,1.82*0C
2026-06-20 15:50:42.463 | 192.168.43.118:50510 | 1315168+$GPGSV,3,1,12,01,32,156,24,02,07,156,,03,63,079,13,04,77,222,23*76
2026-06-20 15:50:42.463 | 192.168.43.118:50510 | 1315239+$GPGSV,3,2,12,06,35,310,36,07,00,187,,09,40,234,21,17,21,244,17*7F
2026-06-20 15:50:42.464 | 192.168.43.118:50510 | 1315310+$GPGSV,3,3,12,19,26,277,17,26,03,088,,28,15,037,19,31,33,060,20*71
2026-06-20 15:50:42.830 | 192.168.43.118:50510 | 1315923+$GPRMC,135043.00,A,4735.75461,N,01903.62798,E,0.642,,200626,,,A*7D
$GPGGA Time:135043.00
Lati:4735.75461 : N Long:01903.62798 : E
SatN:09 HDOP:0.95 Elev:172.8
 | 192.168.43.118:50510 | 1316037+$GPGGA,135043.00,4735.75461,N,01903.62798,E,1,09,0.95,172.8,M,39.4,M,,*56
2026-06-20 15:50:42.952 | 192.168.43.118:50510 | {TsMs:1316038}{Pre:1008.19}{Alt:42.23}{acc:[-0.36, -0.08, 0.91]}{gyr:[0.98, 14.05, -48.38]}{resG:0.99}{temp:34.77}{comp:[-381, -807, -821]}{azi:141}{bea:6}{dir: SE}
2026-06-20 15:50:43.006 | 192.168.43.118:50510 | 1316100+$GPGSA,A,3,03,04,09,17,19,06,01,31,28,,,,1.84,0.95,1.57*0F
2026-06-20 15:50:43.077 | 192.168.43.118:50510 | 1316170+$GPGSV,3,1,12,01,32,156,23,02,07,156,,03,63,079,14,04,77,222,24*71
2026-06-20 15:50:43.148 | 192.168.43.118:50510 | 1316241+$GPGSV,3,2,12,06,35,310,38,07,00,187,,09,40,234,20,17,21,244,17*70
2026-06-20 15:50:43.245 | 192.168.43.118:50510 | 1316312+$GPGSV,3,3,12,19,26,277,15,26,03,088,,28,15,037,19,31,33,060,20*73
2026-06-20 15:50:43.833 | 192.168.43.118:50510 | 1316925+$GPRMC,135044.00,A,4735.75377,N,01903.62799,E,1.179,,200626,,,A*75
$GPGGA Time:135044.00
Lati:4735.75377 : N Long:01903.62799 : E
SatN:09 HDOP:0.95 Elev:172.4
 | 192.168.43.118:50510 | 1317040+$GPGGA,135044.00,4735.75377,N,01903.62799,E,1,09,0.95,172.4,M,39.4,M,,*5C
2026-06-20 15:50:43.955 | 192.168.43.118:50510 | {TsMs:1317040}{Pre:1008.17}{Alt:42.38}{acc:[-0.34, -0.10, 1.34]}{gyr:[-5.26, -20.52, -55.08]}{resG:1.38}{temp:34.77}{comp:[-385, -772, -820]}{azi:140}{bea:6}{dir: SE}
2026-06-20 15:50:44.009 | 192.168.43.118:50510 | 1317102+$GPGSA,A,3,03,04,09,17,19,06,01,31,28,,,,1.84,0.95,1.57*0F
2026-06-20 15:50:44.080 | 192.168.43.118:50510 | 1317173+$GPGSV,3,1,12,01,32,156,23,02,07,156,,03,63,079,14,04,77,222,24*71
2026-06-20 15:50:44.151 | 192.168.43.118:50510 | 1317244+$GPGSV,3,2,12,06,35,310,37,07,00,187,,09,40,234,19,17,21,244,16*74
2026-06-20 15:50:44.223 | 192.168.43.118:50510 | 1317314+$GPGSV,3,3,12,19,26,277,16,26,03,088,,28,15,037,17,31,33,060,22*7C
